[{
  "province": "河南省",
  "city": "",
  "county": "",
  "publish_time": "2012-08-29",
  "title": "关于河南省疾病预防控制中心2012年9月二类疫苗定点采购供应商项目的中标公告",
  "title_link": "https://www.tianyancha.com/bid/4b27b36c213811e8837d6c92bf3b6045",
  "raw_link": "http://search.ccgp.gov.cn/oldsearch/detail?docId=2310272",
  "location": "河南省疾病预防控制中心"
}, {
  "province": "陕西省",
  "city": "",
  "county": "",
  "publish_time": "2012-08-27",
  "title": "陕西省卫生厅疫苗及注射器采购项目中标公告",
  "title_link": "https://www.tianyancha.com/bid/a9a304d3213c11e8837d6c92bf3b6045",
  "raw_link": "http://search.ccgp.gov.cn/oldsearch/detail?docId=2307033",
  "location": "陕西省卫生厅"
}, {
  "province": "广东省",
  "city": "",
  "county": "",
  "publish_time": "2012-08-03",
  "title": "广东省疾病预防控制中心2012年免疫规划疫苗采购（重招）项目成交公告",
  "title_link": "https://www.tianyancha.com/bid/a5f5d45e216a11e8837d6c92bf3b6045",
  "raw_link": "http://search.ccgp.gov.cn/oldsearch/detail?docId=2264923",
  "location": "广东省疾病预防控制中心"
}, {
  "province": "内蒙古自治区",
  "city": "包头市",
  "county": "",
  "publish_time": "2012-05-14",
  "title": "包头市疾病控制中心疫苗资质政府采购公开招标公告中标公告(项目编号=包采公〔2012〕142号)",
  "title_link": "https://www.tianyancha.com/bid/a05081a921e111e8837d6c92bf3b6045",
  "raw_link": "http://search.ccgp.gov.cn/oldsearch/detail?docId=2117310",
  "location": "包头市疾病预防控制中心"
}, {
  "province": "江西省",
  "city": "景德镇市",
  "county": "",
  "publish_time": "2012-05-08",
  "title": "江西鑫田招标咨询有限公司关于江西省景德镇市卫生局疫苗及注射器项目（文件编号：JXXT2012009）成交公告",
  "title_link": "https://www.tianyancha.com/bid/31178e20242d11e8837d6c92bf3b6045",
  "raw_link": "http://search.ccgp.gov.cn/oldsearch/detail?docId=2109549",
  "location": "景德镇市卫生局"
}, {
  "province": "江西省",
  "city": "上饶市",
  "county": "",
  "publish_time": "2012-03-28",
  "title": "江西上饶市市本级政府采购中心关于上饶市卫生局采购疫苗项目的成交公告",
  "title_link": "https://www.tianyancha.com/bid/35f637f7256b11e8837d6c92bf3b6045",
  "raw_link": "http://search.ccgp.gov.cn/oldsearch/detail?docId=2050692",
  "location": "上饶市卫生局"
}, {
  "province": "江西省",
  "city": "九江市",
  "county": "",
  "publish_time": "2012-03-14",
  "title": "江西省九江市公共资源交易中心政府采购部关于九江市儿童免疫规划一类疫苗采购项目废标后重新招标的中标公告",
  "title_link": "https://www.tianyancha.com/bid/f89cd70b258011e8837d6c92bf3b6045",
  "raw_link": "http://search.ccgp.gov.cn/oldsearch/detail?docId=2030799",
  "location": "九江市卫生局"
}, {
  "province": "甘肃省",
  "city": "",
  "county": "",
  "publish_time": "2012-03-12",
  "title": "甘肃省疾控中心2011年中央公共卫生国家扩大免疫规划专项资金疫苗项目中标公告",
  "title_link": "https://www.tianyancha.com/bid/6dedb98a258411e8837d6c92bf3b6045",
  "raw_link": "http://search.ccgp.gov.cn/oldsearch/detail?docId=2026227",
  "location": "甘肃省疾控中心"
}, {
  "province": "江西省",
  "city": "赣州市",
  "county": "",
  "publish_time": "2012-03-06",
  "title": "赣州市卫生局一类疫苗招标采购项目(重招)中标公告Ⅱ（项目编号：JXGZ-HW-1202）",
  "title_link": "https://www.tianyancha.com/bid/2aca06f3258a11e8837d6c92bf3b6045",
  "raw_link": "http://search.ccgp.gov.cn/oldsearch/detail?docId=2019469",
  "location": "赣州市卫生局"
}, {
  "province": "广西壮族自治区",
  "city": "",
  "county": "",
  "publish_time": "2012-02-21",
  "title": "广西科文招标有限公司疫苗及注射器采购（GXZC2011-G1-40041-KW）中标公告",
  "title_link": "https://www.tianyancha.com/bid/f1ec2374259d11e8837d6c92bf3b6045",
  "raw_link": "http://search.ccgp.gov.cn/oldsearch/detail?docId=2001984",
  "location": "广西壮族自治区卫生厅"
}, {
  "province": "浙江省",
  "city": "",
  "county": "",
  "publish_time": "2012-02-18",
  "title": "浙江省成套招标代理有限公司关于二类疫苗的成交结果公示",
  "title_link": "https://www.tianyancha.com/bid/accbad0a25a011e8837d6c92bf3b6045",
  "raw_link": "http://search.ccgp.gov.cn/oldsearch/detail?docId=1999775",
  "location": "省疾病预防控制中心"
}, {
  "province": "福建省",
  "city": "",
  "county": "",
  "publish_time": "2012-01-17",
  "title": "福建省机电设备招标公司关于福建省疾病预防控制中心2012年度第一类疫苗采购项目的中选结果公示",
  "title_link": "https://www.tianyancha.com/bid/86c189e325bb11e8837d6c92bf3b6045",
  "raw_link": "http://search.ccgp.gov.cn/oldsearch/detail?docId=1974520",
  "location": "福建省疾病预防控制中心"
}, {
  "province": "浙江省",
  "city": "",
  "county": "",
  "publish_time": "2012-01-16",
  "title": "浙江省成套招标代理有限公司关于二类疫苗的预成交结果公示",
  "title_link": "https://www.tianyancha.com/bid/730a805b25bc11e8837d6c92bf3b6045",
  "raw_link": "http://search.ccgp.gov.cn/oldsearch/detail?docId=1973660",
  "location": "浙江省疾病预防控制中心"
}, {
  "province": "河南省",
  "city": "",
  "county": "",
  "publish_time": "2012-01-16",
  "title": "河南省卫生厅2012年扩大国家免疫规划疫苗注射器采购项目竞争性谈判成交公告",
  "title_link": "https://www.tianyancha.com/bid/3bb8bb0625bd11e8837d6c92bf3b6045",
  "raw_link": "http://search.ccgp.gov.cn/oldsearch/detail?docId=1972851",
  "location": "河南省卫生厅"
}, {
  "province": "浙江省",
  "city": "",
  "county": "",
  "publish_time": "2011-11-09",
  "title": "浙江省政府采购中心关于疫苗的中标结果公示",
  "title_link": "https://www.tianyancha.com/bid/07a84c541fff11e8837d6c92bf3b6045",
  "raw_link": "http://search.ccgp.gov.cn/oldsearch/detail?docId=1865021",
  "location": "省疾病预防控制中心"
}, {
  "province": "河南省",
  "city": "",
  "county": "",
  "publish_time": "2011-09-06",
  "title": "关于河南省疾病预防控制中心2011年9月二类疫苗定点采购供应商入围项目的中标公告",
  "title_link": "https://www.tianyancha.com/bid/e81dceaf1d2b11e8837d6c92bf3b6045",
  "raw_link": "http://search.ccgp.gov.cn/oldsearch/detail?docId=1769349",
  "location": "河南省疾病预防控制中心"
}, {
  "province": "福建省",
  "city": "莆田市",
  "county": "",
  "publish_time": "2010-09-27",
  "title": "莆田市四通招标代理有限公司关于二类疫苗采购PTST20100736的中标公告",
  "title_link": "https://www.tianyancha.com/bid/929f41971b2a11e8837d6c92bf3b6045",
  "raw_link": "http://search.ccgp.gov.cn/oldsearch/detail?docId=1260455",
  "location": "莆田市疾病预防控制中心"
}, {
  "province": "福建省",
  "city": "福州市",
  "county": "",
  "publish_time": "2010-07-20",
  "title": "福建省福怡药械招标有限公司FYZB-X2-2010027中标公告",
  "title_link": "https://www.tianyancha.com/bid/03a46e211b6a11e8837d6c92bf3b6045",
  "raw_link": "http://search.ccgp.gov.cn/oldsearch/detail?docId=1202602",
  "location": "福州市疾病预防控制中心"
}, {
  "province": "广西壮族自治区",
  "city": "",
  "county": "",
  "publish_time": "2010-06-02",
  "title": "广西科文招标有限公司 疫苗及注射器采购（KWOZ2G2010136)中标公告",
  "title_link": "https://www.tianyancha.com/bid/f18860c91b9311e8837d6c92bf3b6045",
  "raw_link": "http://search.ccgp.gov.cn/oldsearch/detail?docId=1158367",
  "location": "广西壮族自治区卫生厅"
}, {
  "province": "福建省",
  "city": "莆田市",
  "county": "",
  "publish_time": "2009-07-23",
  "title": "莆田市四通招标代理有限公司二类疫苗采购PTST20090615的中标公告",
  "title_link": "https://www.tianyancha.com/bid/c14e2a2a1efd11e8837d6c92bf3b6045",
  "raw_link": "http://search.ccgp.gov.cn/oldsearch/detail?docId=797264",
  "location": "莆田市疾病预防控制中心"
}, {
  "province": "重庆市",
  "city": "重庆市",
  "county": "",
  "publish_time": "2017-09-21",
  "title": "2017年重庆市第二类疫苗供应商入围采购(17A2467)结果公告",
  "title_link": "https://www.tianyancha.com/bid/a60a7335b3de11e7837d6c92bf3b6045",
  "raw_link": "http://www.ccgp.gov.cn/cggg/dfgg/zbgg/201709/t20170921_8883878.htm",
  "location": "重庆市疾病预防控制中心"
}, {
  "province": "广东省",
  "city": "",
  "county": "",
  "publish_time": "2017-06-09",
  "title": "2017年中央补助广东省免疫规划项目（冻干甲型肝炎减毒活疫苗）成交公告",
  "title_link": "https://www.tianyancha.com/bid/1b3e306618a1413aae675f680676cf05",
  "raw_link": "http://www.ccgp.gov.cn/cggg/dfgg/zbgg/201706/t20170609_8356357.htm",
  "location": "广东省疾病预防控制中心"
}, {
  "province": "广东省",
  "city": "",
  "county": "",
  "publish_time": "2017-03-06",
  "title": "2017年中央补助广东省免疫规划项目(皮内注射用卡介苗等7种疫苗)[项目编号：0835-1701221N0351]中标公告",
  "title_link": "https://www.tianyancha.com/bid/bfa2c368b2a611e7837d6c92bf3b6045",
  "raw_link": "http://www.ccgp.gov.cn/cggg/dfgg/zbgg/201703/t20170306_7974539.htm",
  "location": "广东省疾病预防控制中心"
}, {
  "province": "山东省",
  "city": "",
  "county": "",
  "publish_time": "2017-03-01",
  "title": "山东省疾病控制中心人用疫苗中标公告",
  "title_link": "https://www.tianyancha.com/bid/f6f2fab4b2a611e7837d6c92bf3b6045",
  "raw_link": "http://www.ccgp.gov.cn/cggg/dfgg/zbgg/201703/t20170301_7963641.htm",
  "location": "山东省疾病控制中心"
}, {
  "province": "陕西省",
  "city": "",
  "county": "",
  "publish_time": "2016-12-14",
  "title": "陕西省疾病预防控制中心二类疫苗采购项目磋商成交结果公告",
  "title_link": "https://www.tianyancha.com/bid/d584f50a92f911e7837d6c92bf3b6045",
  "raw_link": "http://www.ccgp.gov.cn/cggg/dfgg/zbgg/201612/t20161214_7738121.htm",
  "location": "陕西省疾病预防控制中心"
}, {
  "province": "云南省",
  "city": "",
  "county": "",
  "publish_time": "2016-11-23",
  "title": "云南省疾病预防控制中心二类疫苗公开招标入围项目入围公告",
  "title_link": "https://www.tianyancha.com/bid/50d79741930411e7837d6c92bf3b6045",
  "raw_link": "http://www.ccgp.gov.cn/cggg/dfgg/zbgg/201611/t20161123_7620869.htm",
  "location": "云南省疾病预防控制中心"
}, {
  "province": "陕西省",
  "city": "",
  "county": "",
  "publish_time": "2016-10-21",
  "title": "陕西省疾病预防控制中心2017年一类疫苗采购项目（A、B、C1、C2、C3、E、F、G、H、I、K包）单一来源成交公告",
  "title_link": "https://www.tianyancha.com/bid/a1d4d2d5932911e7837d6c92bf3b6045",
  "raw_link": "http://www.ccgp.gov.cn/cggg/dfgg/zbgg/201610/t20161021_7466927.htm",
  "location": "陕西省疾病预防控制中心"
}, {
  "province": "广东省",
  "city": "",
  "county": "",
  "publish_time": "2016-09-29",
  "title": "2016年中央补助广东省免疫规划项目（冻干甲型肝炎减毒活疫苗）中标公告",
  "title_link": "https://www.tianyancha.com/bid/146b2fb2935011e7837d6c92bf3b6045",
  "raw_link": "http://www.ccgp.gov.cn/cggg/dfgg/zbgg/201609/t20160929_7386275.htm",
  "location": "广东省疾病预防控制中心"
}, {
  "province": "宁夏回族自治区",
  "city": "",
  "county": "",
  "publish_time": "2016-09-28",
  "title": "宁夏疾控中心2016年缓冲期流感疫苗、 23 价肺炎疫苗采购项目中标（ 成交） 公示 ",
  "title_link": "https://www.tianyancha.com/bid/2d5a4fce935211e7837d6c92bf3b6045",
  "raw_link": "http://www.ccgp.gov.cn/cggg/dfgg/zbgg/201609/t20160928_7379743.htm",
  "location": "宁夏回族自治区疾病预防控制中心"
}, {
  "province": "河北省",
  "city": "",
  "county": "",
  "publish_time": "2016-06-23",
  "title": "河北省疾病预防控制中心2017年度河北省免疫规划用疫苗及注射器竞争性谈判采购中标公告",
  "title_link": "https://www.tianyancha.com/bid/602f503c419b11e6a050288023a1a420",
  "raw_link": "http://www.ccgp.gov.cn/cggg/dfgg/zbgg/201606/t20160623_6941522.htm",
  "location": "河北省疾病预防控制中心"
}, {
  "province": "山东省",
  "city": "",
  "county": "",
  "publish_time": "2016-03-23",
  "title": "山东省疾病控制中心山东省免疫规划用疫苗及监测用品中标公告",
  "title_link": "https://www.tianyancha.com/bid/54795fc3419b11e6a050288023a1a420",
  "raw_link": "http://www.ccgp.gov.cn/cggg/dfgg/zbgg/201603/t20160323_6609323.htm",
  "location": "山东省疾病控制中心"
}, {
  "province": "江苏省",
  "city": "无锡市",
  "county": "",
  "publish_time": "2015-12-04",
  "title": "江苏建协工程咨询有限公司关于人用狂犬病疫苗（Vero细胞）采购定点单位采购项目的中标公告",
  "title_link": "https://www.tianyancha.com/bid/4afe6e25419b11e6a050288023a1a420",
  "raw_link": "http://www.ccgp.gov.cn/cggg/dfgg/zbgg/201512/t20151204_6266317.htm",
  "location": "无锡市疾病预防控制中心"
}, {
  "province": "河北省",
  "city": "",
  "county": "",
  "publish_time": "2015-10-19",
  "title": "河北省疾病预防控制中心2016年度河北省免疫规划用疫苗及注射器采购中标公告",
  "title_link": "https://www.tianyancha.com/bid/450dfc57419b11e6a050288023a1a420",
  "raw_link": "http://www.ccgp.gov.cn/cggg/dfgg/zbgg/201510/t20151019_5987520.htm",
  "location": "河北省疾病预防控制中心"
}, {
  "province": "广东省",
  "city": "",
  "county": "",
  "publish_time": "2015-10-14",
  "title": "2015年广东省免疫规划项目（冻干甲型肝炎减毒活疫苗）（重招）中标公告",
  "title_link": "https://www.tianyancha.com/bid/446cb4c9419b11e6a050288023a1a420",
  "raw_link": "http://www.ccgp.gov.cn/cggg/dfgg/zbgg/201510/t20151014_5964450.htm",
  "location": "广东省疾病预防控制中心"
}, {
  "province": "福建省",
  "city": "福州市",
  "county": "",
  "publish_time": "2014-12-20",
  "title": "福建省福怡药械招标有限公司福州市疾病预防控制中心二类疫苗采购中标公告",
  "title_link": "https://www.tianyancha.com/bid/0bcf947a92f311e7837d6c92bf3b6045",
  "raw_link": "http://www.ccgp.gov.cn/cggg/dfgg/zbgg/201412/t20141220_4864765.htm",
  "location": "福州市疾病预防控制中心"
}, {
  "province": "福建省",
  "city": "福州市",
  "county": "",
  "publish_time": "2014-12-20",
  "title": "福建省福怡药械招标有限公司福州市疾病预防控制中心二类疫苗采购中标公告",
  "title_link": "https://www.tianyancha.com/bid/0bd04ec192f311e7837d6c92bf3b6045",
  "raw_link": "http://www.ccgp.gov.cn/cggg/dfgg/zbgg/201412/t20141220_4864856.htm",
  "location": "福州市疾病预防控制中心"
}, {
  "province": "福建省",
  "city": "福州市",
  "county": "",
  "publish_time": "2014-12-20",
  "title": "福州市疾病预防控制中心二类疫苗采购中标公告",
  "title_link": "https://www.tianyancha.com/bid/0bc1b96b92f311e7837d6c92bf3b6045",
  "raw_link": "http://www.ccgp.gov.cn/cggg/dfgg/zbgg/201412/t20141220_4863811.htm",
  "location": "福州市疾病预防控制中心"
}, {
  "province": "山东省",
  "city": "青岛市",
  "county": "",
  "publish_time": "2014-12-19",
  "title": "山东省青岛市疾病预防控制中心（青岛市健康教育所）青岛疾控水痘疫苗采购项目中标公告",
  "title_link": "https://www.tianyancha.com/bid/0c3c575992f311e7837d6c92bf3b6045",
  "raw_link": "http://www.ccgp.gov.cn/cggg/dfgg/zbgg/201412/t20141219_4863675.htm",
  "location": "山东省青岛市疾病预防控制中心（青岛市健康教育所）"
}, {
  "province": "河北省",
  "city": "",
  "county": "",
  "publish_time": "2014-12-19",
  "title": "河北省疾病预防控制中心2015年度河北省免疫规划用疫苗及注射器采购中标公告",
  "title_link": "https://www.tianyancha.com/bid/23e42fc192f311e7837d6c92bf3b6045",
  "raw_link": "http://www.ccgp.gov.cn/cggg/dfgg/zbgg/201412/t20141219_4861842.htm",
  "location": "河北省疾病预防控制中心"
}, {
  "province": "福建省",
  "city": "",
  "county": "",
  "publish_time": "2014-12-17",
  "title": "福建省疾病预防控制中心2015年度第一类疫苗采购项目中选结果公示",
  "title_link": "https://www.tianyancha.com/bid/a080714292f311e7837d6c92bf3b6045",
  "raw_link": "http://www.ccgp.gov.cn/cggg/dfgg/zbgg/201412/t20141217_4852174.htm",
  "location": "福建省疾病预防控制中心"
}, {
  "province": "浙江省",
  "city": "",
  "county": "",
  "publish_time": "2014-12-05",
  "title": "浙江省政府采购中心关于二类疫苗的中标结果公示",
  "title_link": "https://www.tianyancha.com/bid/3eec569592f511e7837d6c92bf3b6045",
  "raw_link": "http://www.ccgp.gov.cn/cggg/dfgg/zbgg/201412/t20141205_4814400.htm",
  "location": "省疾病预防控制中心"
}, {
  "province": "浙江省",
  "city": "",
  "county": "",
  "publish_time": "2014-12-05",
  "title": "浙江省政府采购中心关于二类疫苗的中标结果公示",
  "title_link": "https://www.tianyancha.com/bid/3f60b21192f511e7837d6c92bf3b6045",
  "raw_link": "http://www.ccgp.gov.cn/cggg/dfgg/zbgg/201412/t20141205_4814396.htm",
  "location": "省疾病预防控制中心"
}, {
  "province": "广西壮族自治区",
  "city": "南宁市",
  "county": "",
  "publish_time": "2014-11-27",
  "title": "广西同泽工程项目管理有限责任公司南宁市疾病预防控制中心二类疫苗定点采购成交信息公示",
  "title_link": "https://www.tianyancha.com/bid/ec197db892f611e7837d6c92bf3b6045",
  "raw_link": "http://www.ccgp.gov.cn/cggg/dfgg/zbgg/201411/t20141127_4780141.htm",
  "location": "南宁市疾病预防控制中心"
}, {
  "province": "陕西省",
  "city": "",
  "county": "",
  "publish_time": "2014-11-13",
  "title": "关于陕西省疾病预防控制中心疫苗及注射器采购项目中标公告",
  "title_link": "https://www.tianyancha.com/bid/25c14fb392fa11e7837d6c92bf3b6045",
  "raw_link": "http://www.ccgp.gov.cn/cggg/dfgg/zbgg/201411/t20141113_4729761.htm",
  "location": "陕西省疾病预防控制中心"
}, {
  "province": "广西壮族自治区",
  "city": "",
  "county": "",
  "publish_time": "2014-10-15",
  "title": "广西壮族自治区疾病预防控制中心二类疫苗定点供货采购(GXZC2014-G1-1426-CGZX)中标公告",
  "title_link": "https://www.tianyancha.com/bid/1b1afa8192fe11e7837d6c92bf3b6045",
  "raw_link": "http://www.ccgp.gov.cn/cggg/dfgg/zbgg/201410/t20141015_4630738.htm",
  "location": "广西壮族自治区疾病预防控制中心"
}, {
  "province": "广西壮族自治区",
  "city": "",
  "county": "",
  "publish_time": "2014-10-15",
  "title": "广西壮族自治区疾病预防控制中心二类疫苗定点供货采购(GXZC2014-G1-1426-CGZX)中标公告",
  "title_link": "https://www.tianyancha.com/bid/1fd9625092fe11e7837d6c92bf3b6045",
  "raw_link": "http://www.ccgp.gov.cn/cggg/dfgg/zbgg/201410/t20141015_4630271.htm",
  "location": "广西壮族自治区疾病预防控制中心"
}, {
  "province": "广西壮族自治区",
  "city": "南宁市",
  "county": "",
  "publish_time": "2014-10-09",
  "title": "NNZC2014-10566A南宁市疾病预防控制中心二类疫苗采购中标/成交结果公告",
  "title_link": "https://www.tianyancha.com/bid/fa64e9d392fe11e7837d6c92bf3b6045",
  "raw_link": "http://www.ccgp.gov.cn/cggg/dfgg/zbgg/201410/t20141009_4605944.htm",
  "location": "南宁市疾病预防控制中心"
}, {
  "province": "广东省",
  "city": "",
  "county": "",
  "publish_time": "2014-09-18",
  "title": "广东省疾病预防控制中心2014财年广东省免疫规划疫苗采购项目中标公告",
  "title_link": "https://www.tianyancha.com/bid/55369c5b930111e7837d6c92bf3b6045",
  "raw_link": "http://www.ccgp.gov.cn/cggg/dfgg/zbgg/201409/t20140918_4557225.htm",
  "location": "广东省疾病预防控制中心"
}, {
  "province": "辽宁省",
  "city": "",
  "county": "",
  "publish_time": "2014-09-03",
  "title": "中央转移支付免疫规划项目中标公告",
  "title_link": "https://www.tianyancha.com/bid/cc4aaf0f930211e7837d6c92bf3b6045",
  "raw_link": "http://www.ccgp.gov.cn/cggg/dfgg/zbgg/201409/t20140903_4515325.htm",
  "location": "无详细信息"
}, {
  "province": "山东省",
  "city": "",
  "county": "",
  "publish_time": "2014-06-26",
  "title": "山东省疾病控制中心山东省2015年度免疫规划用疫苗中标公告",
  "title_link": "https://www.tianyancha.com/bid/f87a9dbe930c11e7837d6c92bf3b6045",
  "raw_link": "http://www.ccgp.gov.cn/cggg/dfgg/zbgg/201406/t20140626_4290205.htm",
  "location": "山东省疾病控制中心"
}, {
  "province": "广东省",
  "city": "",
  "county": "",
  "publish_time": "2014-05-26",
  "title": "广东省疾病预防控制中心2014年免疫规划疫苗(重组乙型肝炎疫苗、冻干甲型肝炎减毒活疫苗)及注射器采购项目（重招）的中标（成交）公告",
  "title_link": "https://www.tianyancha.com/bid/215efddd931311e7837d6c92bf3b6045",
  "raw_link": "http://www.ccgp.gov.cn/cggg/dfgg/zbgg/201405/t20140526_4195013.htm",
  "location": "广东省疾病预防控制中心"
}, {
  "province": "广东省",
  "city": "",
  "county": "",
  "publish_time": "2014-02-25",
  "title": "广东省疾病预防控制中心2014年免疫规划疫苗采购（项目编号：0835-1401221N0041）的中标公告",
  "title_link": "https://www.tianyancha.com/bid/026ceefe931b11e7837d6c92bf3b6045",
  "raw_link": "http://www.ccgp.gov.cn/cggg/dfgg/zbgg/201402/t20140225_4027883.htm",
  "location": "广东省疾病预防控制中心"
}, {
  "province": "河北省",
  "city": "",
  "county": "",
  "publish_time": "2014-02-11",
  "title": "河北省疾病预防控制中心河北省追加采购2013年度免疫规划用疫苗、注射器招标中标公告",
  "title_link": "https://www.tianyancha.com/bid/d1a2dc39931b11e7837d6c92bf3b6045",
  "raw_link": "http://www.ccgp.gov.cn/cggg/dfgg/zbgg/201402/t20140211_4011071.htm",
  "location": "河北省疾病预防控制中心"
}, {
  "province": "河北省",
  "city": "",
  "county": "",
  "publish_time": "2014-01-26",
  "title": "河北省追加采购2013年度免疫规划用疫苗、注射器招标预中标公告",
  "title_link": "https://www.tianyancha.com/bid/1ee5c39e931c11e7837d6c92bf3b6045",
  "raw_link": "http://www.ccgp.gov.cn/cggg/dfgg/zbgg/201401/t20140126_4003740.htm",
  "location": "河北省疾病预防控制中心"
}, {
  "province": "福建省",
  "city": "莆田市",
  "county": "",
  "publish_time": "2014-01-22",
  "title": "莆田市四通招标代理有限公司关于PTST20130878二类疫苗采购的中标公告",
  "title_link": "https://www.tianyancha.com/bid/684ab5f9931c11e7837d6c92bf3b6045",
  "raw_link": "http://www.ccgp.gov.cn/cggg/dfgg/zbgg/201401/t20140122_3997450.htm",
  "location": "莆田市疾病预防控制中心"
}, {
  "province": "广西壮族自治区",
  "city": "",
  "county": "",
  "publish_time": "2014-01-15",
  "title": "广西科文招标有限公司疫苗及注射器采购（GXZC2013-G1-41201-KW）中标公告",
  "title_link": "https://www.tianyancha.com/bid/2749693c931d11e7837d6c92bf3b6045",
  "raw_link": "http://www.ccgp.gov.cn/cggg/dfgg/zbgg/201401/t20140115_3987226.htm",
  "location": "广西壮族自治区卫生厅"
}, {
  "province": "浙江省",
  "city": "",
  "county": "",
  "publish_time": "2013-12-30",
  "title": "浙江省政府采购中心关于二类疫苗的中标结果公示",
  "title_link": "https://www.tianyancha.com/bid/60ce741392f111e7837d6c92bf3b6045",
  "raw_link": "http://www.ccgp.gov.cn/cggg/dfgg/zbgg/201312/t20131230_3960674.htm",
  "location": "省疾病预防控制中心"
}, {
  "province": "福建省",
  "city": "福州市",
  "county": "",
  "publish_time": "2013-12-24",
  "title": "福州市疾病预防控制中心二类疫苗公开招标中标公告",
  "title_link": "https://www.tianyancha.com/bid/e2ea258892f111e7837d6c92bf3b6045",
  "raw_link": "http://www.ccgp.gov.cn/cggg/dfgg/zbgg/201312/t20131224_3949652.htm",
  "location": "福州市疾病预防控制中心"
}, {
  "province": "广东省",
  "city": "茂名市",
  "county": "",
  "publish_time": "2013-12-19",
  "title": "茂名市疾病预防控制中心二类疫苗采购项目（项目编号0835-1301A74N4591）中标公告",
  "title_link": "https://www.tianyancha.com/bid/4a709d2492f211e7837d6c92bf3b6045",
  "raw_link": "http://www.ccgp.gov.cn/cggg/dfgg/zbgg/201312/t20131219_3936466.htm",
  "location": "茂名市疾病预防控制中心"
}, {
  "province": "河南省",
  "city": "",
  "county": "",
  "publish_time": "2013-12-17",
  "title": "河南省卫生厅2014年国家免疫规划疫苗及注射器采购项目竞争性谈判成交公告",
  "title_link": "https://www.tianyancha.com/bid/7c65985992f211e7837d6c92bf3b6045",
  "raw_link": "http://www.ccgp.gov.cn/cggg/dfgg/zbgg/201312/t20131217_3931268.htm",
  "location": "河南省卫生厅"
}, {
  "province": "陕西省",
  "city": "",
  "county": "",
  "publish_time": "2013-12-03",
  "title": "陕西省卫生厅2014年免疫规划疫苗及注射器采购项目中标公告",
  "title_link": "https://www.tianyancha.com/bid/dadc968292f311e7837d6c92bf3b6045",
  "raw_link": "http://www.ccgp.gov.cn/cggg/dfgg/zbgg/201312/t20131203_3889658.htm",
  "location": "《陕西省卫生厅"
}, {
  "province": "江苏省",
  "city": "",
  "county": "",
  "publish_time": "2013-10-24",
  "title": "2014年江苏省儿童免疫规划疫苗招标采购中标公告",
  "title_link": "https://www.tianyancha.com/bid/96436d6a92f811e7837d6c92bf3b6045",
  "raw_link": "http://www.ccgp.gov.cn/cggg/dfgg/zbgg/201310/t20131024_3856037.htm",
  "location": "江苏省疾病预防控制中心"
}, {
  "province": "江苏省",
  "city": "宿迁市",
  "county": "",
  "publish_time": "2013-10-22",
  "title": "宿迁市疾病预防控制中心二类疫苗采购项目中标公告",
  "title_link": "https://www.tianyancha.com/bid/cf61a45192f811e7837d6c92bf3b6045",
  "raw_link": "http://www.ccgp.gov.cn/cggg/dfgg/zbgg/201310/t20131022_3788395.htm",
  "location": "宿迁市疾病预防控制中心"
}, {
  "province": "广西壮族自治区",
  "city": "",
  "county": "",
  "publish_time": "2013-10-17",
  "title": "广西壮族自治区政府采购中心二类疫苗定点供货采购（GXZC2012-G3-40757-ZC）中标公告",
  "title_link": "https://www.tianyancha.com/bid/295ff5ff92f911e7837d6c92bf3b6045",
  "raw_link": "http://www.ccgp.gov.cn/cggg/dfgg/zbgg/201310/t20131017_3792902.htm",
  "location": "广西壮族自治区疾病预防控制中心"
}, {
  "province": "山东省",
  "city": "青岛市",
  "county": "",
  "publish_time": "2013-08-27",
  "title": "青岛市疾病预防控制中心水痘疫苗采购项目中标结果公示",
  "title_link": "https://www.tianyancha.com/bid/6e5100c892fc11e7837d6c92bf3b6045",
  "raw_link": "http://www.ccgp.gov.cn/cggg/dfgg/zbgg/201308/t20130827_3539100.htm",
  "location": "山东省青岛市疾病预防控制中心（青岛市健康教育所）"
}, {
  "province": "北京市",
  "city": "",
  "county": "",
  "publish_time": "2013-07-10",
  "title": "北京市卫生局2013年免费接种用流感疫苗项目中标结果公告",
  "title_link": "https://www.tianyancha.com/bid/0ce97e1c930111e7837d6c92bf3b6045",
  "raw_link": "http://www.ccgp.gov.cn/cggg/dfgg/zbgg/201307/t20130710_3503757.htm",
  "location": "北京市卫生局"
}, {
  "province": "广东省",
  "city": "",
  "county": "",
  "publish_time": "2013-05-29",
  "title": "广东省疾病预防控制中心2013年免疫规划疫苗采购项目（重招）中标公告",
  "title_link": "https://www.tianyancha.com/bid/e1b717d6930311e7837d6c92bf3b6045",
  "raw_link": "http://www.ccgp.gov.cn/cggg/dfgg/zbgg/201305/t20130529_3475083.htm",
  "location": "广东省疾病预防控制中心"
}, {
  "province": "湖北省",
  "city": "黄冈市",
  "county": "",
  "publish_time": "2013-05-28",
  "title": "黄冈市疾病预防控制中心遴选二类疫苗配送企业项目中标公示",
  "title_link": "https://www.tianyancha.com/bid/f30f9c5f930311e7837d6c92bf3b6045",
  "raw_link": "http://www.ccgp.gov.cn/cggg/dfgg/zbgg/201305/t20130528_3474505.htm",
  "location": "黄冈市疾病预防控制中心"
}, {
  "province": "湖北省",
  "city": "武汉市",
  "county": "",
  "publish_time": "2013-04-02",
  "title": "武汉市疾病预防控制中心2013年二类疫苗采购项目中标结果公告",
  "title_link": "https://www.tianyancha.com/bid/48714cd3930711e7837d6c92bf3b6045",
  "raw_link": "http://www.ccgp.gov.cn/cggg/dfgg/zbgg/201304/t20130402_3442814.htm",
  "location": "武汉市疾病预防控制中心"
}, {
  "province": "广东省",
  "city": "",
  "county": "",
  "publish_time": "2013-03-07",
  "title": "广东省疾病预防控制中心2013年免疫规划疫苗采购项目中标公告",
  "title_link": "https://www.tianyancha.com/bid/5e6b2a27930811e7837d6c92bf3b6045",
  "raw_link": "http://www.ccgp.gov.cn/cggg/dfgg/zbgg/201303/t20130307_3433337.htm",
  "location": "广东省疾病预防控制中心"
}, {
  "province": "广西壮族自治区",
  "city": "",
  "county": "",
  "publish_time": "2013-02-20",
  "title": "广西科文招标有限公司疫苗及注射器采购GXZC2013-G1-40030-KW中标公告",
  "title_link": "https://www.tianyancha.com/bid/05be882b930911e7837d6c92bf3b6045",
  "raw_link": "http://www.ccgp.gov.cn/cggg/dfgg/zbgg/201302/t20130220_3427348.htm",
  "location": "广西壮族自治区卫生厅"
}, {
  "province": "吉林省",
  "city": "",
  "county": "",
  "publish_time": "2012-11-21",
  "title": "吉林省卫生厅疫苗(第二次)项目成交结果公告",
  "title_link": "https://www.tianyancha.com/bid/6282fe8c207e11e8837d6c92bf3b6045",
  "raw_link": "http://search.ccgp.gov.cn/oldsearch/detail?docId=2464964",
  "location": "吉林省卫生厅"
}, {
  "province": "福建省",
  "city": "福州市",
  "county": "",
  "publish_time": "2012-11-14",
  "title": "福州市疾病预防控制中心二类疫苗采购中标公告",
  "title_link": "https://www.tianyancha.com/bid/06951afb209211e8837d6c92bf3b6045",
  "raw_link": "http://search.ccgp.gov.cn/oldsearch/detail?docId=2449189",
  "location": "福州市疾病预防控制中心"
}, {
  "province": "福建省",
  "city": "莆田市",
  "county": "",
  "publish_time": "2012-10-25",
  "title": "莆田市四通招标代理有限公司关于PTST20120863二类疫苗采购的中标公告",
  "title_link": "https://www.tianyancha.com/bid/c91ff11a20bf11e8837d6c92bf3b6045",
  "raw_link": "http://search.ccgp.gov.cn/oldsearch/detail?docId=2417690",
  "location": "莆田市疾病预防控制中心"
}, {
  "province": "福建省",
  "city": "莆田市",
  "county": "",
  "publish_time": "2012-10-25",
  "title": "莆田市四通招标代理有限公司关于二类疫苗采购项目-补充公告",
  "title_link": "https://www.tianyancha.com/bid/cec7f4f520c011e8837d6c92bf3b6045",
  "raw_link": "http://search.ccgp.gov.cn/oldsearch/detail?docId=2409064",
  "location": "莆田市疾病预防控制中心"
}, {
  "province": "江苏省",
  "city": "",
  "county": "",
  "publish_time": "2012-10-16",
  "title": "江苏省疾病预防控制中心2013年江苏省儿童免疫规划用疫苗招标采购中标公告",
  "title_link": "https://www.tianyancha.com/bid/716902df20d511e8837d6c92bf3b6045",
  "raw_link": "http://search.ccgp.gov.cn/oldsearch/detail?docId=2390378",
  "location": "江苏省疾病预防控制中心"
}, {
  "province": "贵州省",
  "city": "",
  "county": "",
  "publish_time": "2012-10-11",
  "title": "贵州省卫生厅2012年度扩大免疫规划疫苗注射器和脊灰实验室设备采购项目中标结果公示",
  "title_link": "https://www.tianyancha.com/bid/4da1afac20e111e8837d6c92bf3b6045",
  "raw_link": "http://search.ccgp.gov.cn/oldsearch/detail?docId=2382019",
  "location": "贵州省卫生厅"
}, {
  "province": "广西壮族自治区",
  "city": "南宁市",
  "county": "",
  "publish_time": "2012-09-29",
  "title": "NNZC2012-1312A南宁市疾病预防控制中心二类疫苗采购项目第10\\36\\46分标中标公告",
  "title_link": "https://www.tianyancha.com/bid/a252ea12227811e8837d6c92bf3b6045",
  "raw_link": "http://search.ccgp.gov.cn/oldsearch/detail?docId=2373174",
  "location": "南宁市疾病预防控制中心"
}, {
  "province": "广西壮族自治区",
  "city": "南宁市",
  "county": "",
  "publish_time": "2012-09-19",
  "title": "NNZC2012-1312A南宁市疾病预防控制中心二类疫苗采购中标/成交结果公告",
  "title_link": "https://www.tianyancha.com/bid/bdc9589323bb11e8837d6c92bf3b6045",
  "raw_link": "http://search.ccgp.gov.cn/oldsearch/detail?docId=2349099",
  "location": "南宁市疾病预防控制中心"
}, {
  "province": "陕西省",
  "city": "",
  "county": "",
  "publish_time": "2012-08-29",
  "title": "陕西省药械招标有限公司关于陕西省卫生厅疫苗招标采购项目成交公告",
  "title_link": "https://www.tianyancha.com/bid/14bacdaa23d511e8837d6c92bf3b6045",
  "raw_link": "http://search.ccgp.gov.cn/oldsearch/detail?docId=2312027",
  "location": "陕西省卫生厅"
}, {
  "province": "河南省",
  "city": "",
  "county": "",
  "publish_time": "2012-08-29",
  "title": "关于河南省疾病预防控制中心2012年9月二类疫苗定点采购供应商项目的中标公告",
  "title_link": "https://www.tianyancha.com/bid/4b27b36c213811e8837d6c92bf3b6045",
  "raw_link": "http://search.ccgp.gov.cn/oldsearch/detail?docId=2310272",
  "location": "河南省疾病预防控制中心"
}, {
  "province": "陕西省",
  "city": "",
  "county": "",
  "publish_time": "2012-08-27",
  "title": "陕西省卫生厅疫苗及注射器采购项目中标公告",
  "title_link": "https://www.tianyancha.com/bid/a9a304d3213c11e8837d6c92bf3b6045",
  "raw_link": "http://search.ccgp.gov.cn/oldsearch/detail?docId=2307033",
  "location": "陕西省卫生厅"
}, {
  "province": "广东省",
  "city": "",
  "county": "",
  "publish_time": "2012-08-03",
  "title": "广东省疾病预防控制中心2012年免疫规划疫苗采购（重招）项目成交公告",
  "title_link": "https://www.tianyancha.com/bid/a5f5d45e216a11e8837d6c92bf3b6045",
  "raw_link": "http://search.ccgp.gov.cn/oldsearch/detail?docId=2264923",
  "location": "广东省疾病预防控制中心"
}, {
  "province": "内蒙古自治区",
  "city": "包头市",
  "county": "",
  "publish_time": "2012-05-14",
  "title": "包头市疾病控制中心疫苗资质政府采购公开招标公告中标公告(项目编号=包采公〔2012〕142号)",
  "title_link": "https://www.tianyancha.com/bid/a05081a921e111e8837d6c92bf3b6045",
  "raw_link": "http://search.ccgp.gov.cn/oldsearch/detail?docId=2117310",
  "location": "包头市疾病预防控制中心"
}, {
  "province": "江西省",
  "city": "景德镇市",
  "county": "",
  "publish_time": "2012-05-08",
  "title": "江西鑫田招标咨询有限公司关于江西省景德镇市卫生局疫苗及注射器项目（文件编号：JXXT2012009）成交公告",
  "title_link": "https://www.tianyancha.com/bid/31178e20242d11e8837d6c92bf3b6045",
  "raw_link": "http://search.ccgp.gov.cn/oldsearch/detail?docId=2109549",
  "location": "景德镇市卫生局"
}, {
  "province": "江西省",
  "city": "上饶市",
  "county": "",
  "publish_time": "2012-03-28",
  "title": "江西上饶市市本级政府采购中心关于上饶市卫生局采购疫苗项目的成交公告",
  "title_link": "https://www.tianyancha.com/bid/35f637f7256b11e8837d6c92bf3b6045",
  "raw_link": "http://search.ccgp.gov.cn/oldsearch/detail?docId=2050692",
  "location": "上饶市卫生局"
}, {
  "province": "江西省",
  "city": "九江市",
  "county": "",
  "publish_time": "2012-03-14",
  "title": "江西省九江市公共资源交易中心政府采购部关于九江市儿童免疫规划一类疫苗采购项目废标后重新招标的中标公告",
  "title_link": "https://www.tianyancha.com/bid/f89cd70b258011e8837d6c92bf3b6045",
  "raw_link": "http://search.ccgp.gov.cn/oldsearch/detail?docId=2030799",
  "location": "九江市卫生局"
}, {
  "province": "甘肃省",
  "city": "",
  "county": "",
  "publish_time": "2012-03-12",
  "title": "甘肃省疾控中心2011年中央公共卫生国家扩大免疫规划专项资金疫苗项目中标公告",
  "title_link": "https://www.tianyancha.com/bid/6dedb98a258411e8837d6c92bf3b6045",
  "raw_link": "http://search.ccgp.gov.cn/oldsearch/detail?docId=2026227",
  "location": "甘肃省疾控中心"
}, {
  "province": "江西省",
  "city": "赣州市",
  "county": "",
  "publish_time": "2012-03-06",
  "title": "赣州市卫生局一类疫苗招标采购项目(重招)中标公告Ⅱ（项目编号：JXGZ-HW-1202）",
  "title_link": "https://www.tianyancha.com/bid/2aca06f3258a11e8837d6c92bf3b6045",
  "raw_link": "http://search.ccgp.gov.cn/oldsearch/detail?docId=2019469",
  "location": "赣州市卫生局"
}, {
  "province": "广西壮族自治区",
  "city": "",
  "county": "",
  "publish_time": "2012-02-21",
  "title": "广西科文招标有限公司疫苗及注射器采购（GXZC2011-G1-40041-KW）中标公告",
  "title_link": "https://www.tianyancha.com/bid/f1ec2374259d11e8837d6c92bf3b6045",
  "raw_link": "http://search.ccgp.gov.cn/oldsearch/detail?docId=2001984",
  "location": "广西壮族自治区卫生厅"
}, {
  "province": "浙江省",
  "city": "",
  "county": "",
  "publish_time": "2012-02-18",
  "title": "浙江省成套招标代理有限公司关于二类疫苗的成交结果公示",
  "title_link": "https://www.tianyancha.com/bid/accbad0a25a011e8837d6c92bf3b6045",
  "raw_link": "http://search.ccgp.gov.cn/oldsearch/detail?docId=1999775",
  "location": "省疾病预防控制中心"
}, {
  "province": "福建省",
  "city": "",
  "county": "",
  "publish_time": "2012-01-17",
  "title": "福建省机电设备招标公司关于福建省疾病预防控制中心2012年度第一类疫苗采购项目的中选结果公示",
  "title_link": "https://www.tianyancha.com/bid/86c189e325bb11e8837d6c92bf3b6045",
  "raw_link": "http://search.ccgp.gov.cn/oldsearch/detail?docId=1974520",
  "location": "福建省疾病预防控制中心"
}, {
  "province": "浙江省",
  "city": "",
  "county": "",
  "publish_time": "2012-01-16",
  "title": "浙江省成套招标代理有限公司关于二类疫苗的预成交结果公示",
  "title_link": "https://www.tianyancha.com/bid/730a805b25bc11e8837d6c92bf3b6045",
  "raw_link": "http://search.ccgp.gov.cn/oldsearch/detail?docId=1973660",
  "location": "浙江省疾病预防控制中心"
}, {
  "province": "河南省",
  "city": "",
  "county": "",
  "publish_time": "2012-01-16",
  "title": "河南省卫生厅2012年扩大国家免疫规划疫苗注射器采购项目竞争性谈判成交公告",
  "title_link": "https://www.tianyancha.com/bid/3bb8bb0625bd11e8837d6c92bf3b6045",
  "raw_link": "http://search.ccgp.gov.cn/oldsearch/detail?docId=1972851",
  "location": "河南省卫生厅"
}, {
  "province": "浙江省",
  "city": "",
  "county": "",
  "publish_time": "2011-11-09",
  "title": "浙江省政府采购中心关于疫苗的中标结果公示",
  "title_link": "https://www.tianyancha.com/bid/07a84c541fff11e8837d6c92bf3b6045",
  "raw_link": "http://search.ccgp.gov.cn/oldsearch/detail?docId=1865021",
  "location": "省疾病预防控制中心"
}, {
  "province": "河南省",
  "city": "",
  "county": "",
  "publish_time": "2011-09-06",
  "title": "关于河南省疾病预防控制中心2011年9月二类疫苗定点采购供应商入围项目的中标公告",
  "title_link": "https://www.tianyancha.com/bid/e81dceaf1d2b11e8837d6c92bf3b6045",
  "raw_link": "http://search.ccgp.gov.cn/oldsearch/detail?docId=1769349",
  "location": "河南省疾病预防控制中心"
}, {
  "province": "福建省",
  "city": "莆田市",
  "county": "",
  "publish_time": "2010-09-27",
  "title": "莆田市四通招标代理有限公司关于二类疫苗采购PTST20100736的中标公告",
  "title_link": "https://www.tianyancha.com/bid/929f41971b2a11e8837d6c92bf3b6045",
  "raw_link": "http://search.ccgp.gov.cn/oldsearch/detail?docId=1260455",
  "location": "莆田市疾病预防控制中心"
}, {
  "province": "福建省",
  "city": "福州市",
  "county": "",
  "publish_time": "2010-07-20",
  "title": "福建省福怡药械招标有限公司FYZB-X2-2010027中标公告",
  "title_link": "https://www.tianyancha.com/bid/03a46e211b6a11e8837d6c92bf3b6045",
  "raw_link": "http://search.ccgp.gov.cn/oldsearch/detail?docId=1202602",
  "location": "福州市疾病预防控制中心"
}, {
  "province": "广西壮族自治区",
  "city": "",
  "county": "",
  "publish_time": "2010-06-02",
  "title": "广西科文招标有限公司 疫苗及注射器采购（KWOZ2G2010136)中标公告",
  "title_link": "https://www.tianyancha.com/bid/f18860c91b9311e8837d6c92bf3b6045",
  "raw_link": "http://search.ccgp.gov.cn/oldsearch/detail?docId=1158367",
  "location": "广西壮族自治区卫生厅"
}, {
  "province": "福建省",
  "city": "莆田市",
  "county": "",
  "publish_time": "2009-07-23",
  "title": "莆田市四通招标代理有限公司二类疫苗采购PTST20090615的中标公告",
  "title_link": "https://www.tianyancha.com/bid/c14e2a2a1efd11e8837d6c92bf3b6045",
  "raw_link": "http://search.ccgp.gov.cn/oldsearch/detail?docId=797264",
  "location": "莆田市疾病预防控制中心"
}]